,City,Cloudiness,Country,Date,Humidity,Lat,Lng,Max Temp,Temp,Wind Speed
0,Faanui,80,PF,1524361780,100,-16.48,-151.75,82.2,82.2,8.79
1,Vestmannaeyjar,92,IS,1524361770,99,63.44,-20.27,41.25,41.25,11.81
2,Kamen-Rybolov,0,RU,1524362544,59,44.75,132.04,47.82,47.82,6.33
3,Bluff,0,AU,1524361772,68,-23.58,149.07,77.88,77.88,10.47
4,Colares,40,PT,1524360600,87,38.8,-9.45,60.8,60.04,6.93
5,Lima,8,PE,1524362073,89,-12.06,-77.04,58.44,58.44,1.63
6,Kuytun,0,RU,1524362545,56,54.34,101.51,52.86,52.86,3.98
7,Portland,20,US,1524358380,38,45.52,-122.67,62.6,60.8,6.93
8,Neon Karlovasion,0,GR,1524360000,50,37.79,26.7,53.6,53.6,11.41
9,Pascagoula,1,US,1524361980,88,30.37,-88.56,69.8,67.46,4.7
10,Bilibino,8,RU,1524362546,66,68.06,166.44,36.57,36.57,3.09
11,Kieta,64,PG,1524362010,91,-6.22,155.63,83.82,83.82,5.66
12,Karratha,8,AU,1524362107,26,-20.74,116.85,94.71,94.71,5.77
13,Bireun,20,ID,1524362547,100,5.2,96.7,84.09,84.09,3.09
14,Tual,68,ID,1524362548,100,-5.67,132.75,82.02,82.02,10.58
15,Praia da Vitoria,75,PT,1524358800,100,38.73,-27.07,60.8,60.8,12.71
16,Boo,56,NG,1524362549,92,7.44,8.9,76.62,76.62,11.36
17,Pozo Colorado,0,PY,1524362549,72,-23.49,-58.8,76.71,76.71,5.66
18,Pestretsy,75,RU,1524360600,75,55.75,49.66,41.0,41.0,11.18
19,Rivadavia,0,AR,1524362550,71,-31.53,-68.59,67.26,67.26,5.77
20,Kahului,40,US,1524359820,65,20.89,-156.47,82.4,78.76,21.92
21,Carutapera,76,BR,1524362001,91,-1.2,-46.02,79.14,79.14,6.67
22,Imbituba,0,BR,1524358800,88,-28.24,-48.67,73.4,73.4,8.05
23,Aklavik,5,CA,1524358800,50,68.22,-135.01,5.0,5.0,5.82
24,Yarmouth,0,GB,1524358200,77,50.71,-1.5,60.8,57.09,4.7
25,Great Yarmouth,68,GB,1524361800,81,52.61,1.73,53.6,53.6,3.36
26,Pitimbu,20,BR,1524358800,88,-7.47,-34.81,77.0,77.0,2.24
27,Oussouye,0,SN,1524358800,94,12.49,-16.54,68.0,68.0,2.24
28,Augustdorf,0,DE,1524361800,66,51.91,8.74,53.6,49.48,6.93
29,Muros,0,ES,1524360600,93,42.77,-9.06,53.6,53.6,3.98
30,Erenhot,32,CN,1524362553,63,43.65,111.97,51.96,51.96,16.4
31,Yanam,0,IN,1524362204,74,16.73,82.22,87.96,87.96,2.86
32,Minab,0,IR,1524358800,88,27.15,57.07,69.8,69.8,4.7
33,Benjamin Hill,92,MX,1524362554,21,30.17,-111.1,69.78,69.78,4.43
34,Srednekolymsk,32,RU,1524362474,62,67.46,153.71,41.61,41.61,0.4
35,Mackay,75,CA,1524359520,39,53.65,-115.58,46.4,45.45,12.75
36,Romny,0,UA,1524362555,65,50.74,33.49,44.22,44.22,14.72
37,Dunmore Town,88,BS,1524362556,100,25.5,-76.65,75.81,75.81,18.97
38,Malkangiri,0,IN,1524362556,63,18.35,81.9,83.64,83.64,3.98
39,Saint George,0,GR,1524358200,75,39.45,22.34,46.4,46.4,3.31
40,Mar del Plata,44,AR,1524361858,49,-46.43,-67.52,60.06,60.06,19.53
41,Seddon,0,NZ,1524362557,76,-41.67,174.07,59.34,59.34,3.2
42,Cape Town,0,ZA,1524358800,100,-33.93,18.42,51.8,51.8,4.7
43,Bourbonnais,1,US,1524361500,57,41.16,-87.88,50.0,47.3,5.82
44,North Bend,1,US,1524359700,66,43.41,-124.22,53.6,52.61,27.51
45,Fiche,92,ET,1524362558,93,9.77,38.74,50.61,50.61,2.75
46,Sao Joao da Barra,76,BR,1524361994,100,-21.64,-41.05,76.17,76.17,14.16
47,Riberalta,12,BO,1524362558,96,-11.0,-66.08,75.09,75.09,1.74
48,Namatanai,24,PG,1524362336,94,-3.66,152.44,85.98,85.98,4.99
49,Autazes,12,BR,1524362559,96,-3.58,-59.13,75.45,75.45,2.42
50,Kawalu,56,ID,1524362559,79,-7.38,108.21,78.69,78.69,2.98
51,Gazanjyk,80,TM,1524362560,83,39.24,55.52,54.93,54.93,9.35
52,Robertsport,8,LR,1524362560,100,6.75,-11.37,80.22,80.22,5.77
53,Corning,1,US,1524362160,38,42.14,-77.05,42.8,36.61,2.64
54,Ibra,0,OM,1524362561,61,22.69,58.55,65.1,65.1,2.19
55,Wad Rawah,0,SD,1524362562,25,15.16,33.13,68.88,68.88,5.77
56,San Cristobal,75,EC,1524358800,76,-0.39,-78.55,55.4,55.4,12.75
57,Avera,75,US,1524360900,63,33.19,-82.53,68.0,65.55,3.36
58,Butembo,88,CD,1524362562,98,0.12,29.29,62.49,62.49,1.63
59,Lixourion,0,GR,1524362563,100,38.2,20.43,60.42,60.42,6.55
60,Budesti,0,RO,1524360600,76,44.23,26.47,53.6,50.86,5.82
61,Verkhniy Avzyan,48,RU,1524362564,87,53.53,57.54,28.92,28.92,7.9
62,Alice Springs,0,AU,1524358800,19,-23.7,133.88,86.0,86.0,14.99
63,Taiyuan,75,CN,1524360600,81,37.86,112.56,51.8,51.8,8.95
64,Esperance,20,TT,1524358800,83,10.24,-61.45,77.0,77.0,3.36
65,Delhi,0,IN,1524358800,43,28.65,77.22,71.6,71.6,5.82
66,Yavaros,92,MX,1524362565,43,26.7,-109.52,73.02,73.02,6.33
67,Nuuk,36,GL,1524358200,100,64.17,-51.74,30.2,30.2,13.87
68,Takoradi,88,GH,1524362566,98,4.89,-1.75,78.87,78.87,3.98
69,Neiafu,40,TO,1524358800,83,-18.65,-173.98,82.4,82.4,8.05
70,Muscat,0,OM,1524358200,38,23.6,58.55,75.2,75.2,2.24
71,Grimmen,40,DE,1524360000,87,54.11,13.04,42.8,42.8,1.12
72,Lata,0,IN,1524362567,70,30.78,78.62,53.22,53.22,1.97
73,Mataura,64,NZ,1524361771,77,-46.19,168.86,52.86,52.86,17.07
74,Wheeling,90,US,1524362160,52,40.06,-80.72,53.6,50.81,3.98
75,Margate,0,AU,1524358800,52,-43.03,147.26,66.2,66.2,8.05
76,Ponta Delgada,75,PT,1524360600,82,37.73,-25.67,62.6,62.6,9.17
77,Buraydah,48,SA,1524358800,44,26.33,43.97,77.0,77.0,8.05
78,Lumeje,0,AO,1524362569,67,-11.56,20.78,58.44,58.44,3.76
79,Ramona,1,US,1524358560,33,33.04,-116.87,75.2,67.15,6.93
80,Nanortalik,48,GL,1524361825,88,60.14,-45.24,34.41,34.41,18.19
81,Sao Filipe,64,CV,1524361853,100,14.9,-24.5,68.43,68.43,13.49
82,Busselton,68,AU,1524361773,100,-33.64,115.35,64.92,64.92,22.1
83,Monselice,0,IT,1524360000,82,45.24,11.75,59.0,57.85,2.24
84,Mount Isa,0,AU,1524358800,25,-20.73,139.49,89.6,89.6,14.99
85,Valdez,90,US,1524358560,86,61.13,-146.35,39.2,39.2,6.93
86,Santa Fe,0,AR,1524362449,95,-31.62,-60.7,72.39,72.39,7.45
87,Gotsu,40,JP,1524358800,56,35.01,132.22,71.6,71.6,6.93
88,Nikolskoye,75,RU,1524358800,80,59.7,30.79,35.6,35.6,6.71
89,Koumac,48,NC,1524362572,68,-20.56,164.28,82.74,82.74,9.69
90,Fernley,75,US,1524362160,17,39.61,-119.25,75.2,71.98,1.74
91,Shimoda,20,JP,1524358800,72,34.7,138.93,68.0,68.0,14.99
92,Yeppoon,40,AU,1524358800,57,-23.13,150.74,78.8,78.8,10.29
93,Tazovskiy,76,RU,1524362072,91,67.47,78.7,13.8,13.8,13.49
94,Frankfort,1,US,1524360900,46,38.2,-84.87,62.6,58.68,7.9
95,Port Alfred,0,ZA,1524361845,98,-33.59,26.89,64.83,64.83,11.7
96,Arraial do Cabo,88,BR,1524361919,90,-22.97,-42.02,73.38,73.38,12.26
97,Jacareacanga,12,BR,1524362064,94,-6.22,-57.76,75.0,75.0,1.74
98,San Carlos de Bariloche,75,AR,1524358800,66,-41.13,-71.31,51.8,51.8,14.99
99,Novita,88,CO,1524362575,99,4.96,-76.61,73.11,73.11,2.19
100,Bonfim,8,GY,1524362575,97,3.36,-59.84,69.87,69.87,3.76
101,Kruisfontein,0,ZA,1524361982,91,-34.0,24.73,57.81,57.81,9.69
102,Pyapon,0,MM,1524362576,72,16.29,95.68,88.59,88.59,7.56
103,Bathsheba,75,BB,1524358800,88,13.22,-59.52,75.2,75.2,16.11
104,Dalvik,0,SE,1524360000,93,57.79,14.13,37.4,37.4,5.82
105,Jerecuaro,40,MX,1524358440,27,20.15,-100.52,78.8,77.85,9.17
106,Kasongo-Lunda,12,CD,1524362578,94,-6.48,16.82,67.89,67.89,1.63
107,Creel,92,MX,1524362560,24,27.75,-107.63,62.67,62.67,5.77
108,Saint-Philippe,1,CA,1524359700,33,45.36,-73.48,46.4,44.56,9.17
109,Kangaatsiaq,36,GL,1524362579,92,68.31,-53.46,19.11,19.11,2.75
110,Rio Gallegos,0,AR,1524358800,69,-51.62,-69.22,39.2,39.2,12.75
111,Shyryayeve,8,UA,1524362555,67,47.38,30.2,57.36,57.36,9.8
112,Bensonville,20,LR,1524362580,94,6.45,-10.61,75.09,75.09,2.86
113,Iqaluit,20,CA,1524358800,79,63.75,-68.52,19.4,19.4,3.36
114,Barrow,0,AR,1524361786,70,-38.31,-60.23,68.61,68.61,12.15
115,Bandarbeyla,88,SO,1524361830,100,9.49,50.81,81.3,81.3,2.64
116,Missoula,1,US,1524361980,30,46.87,-114.0,53.6,53.6,12.75
117,Cleveland,1,US,1524362160,80,41.51,-81.69,48.2,42.58,3.36
118,Avallon,20,FR,1524362581,66,47.49,3.91,57.09,57.09,4.43
119,Loiza,20,PR,1524358560,78,18.43,-65.88,78.8,78.8,8.05
120,Amapa,20,HN,1524358800,94,15.09,-87.97,80.6,80.6,11.41
121,Gravdal,12,NO,1524360000,93,59.79,5.78,35.6,35.6,3.36
122,Glenwood Springs,1,US,1524360840,92,39.55,-107.33,55.4,43.32,2.3
123,Rudnogorsk,24,RU,1524362583,57,57.27,103.75,49.98,49.98,7.78
124,Hilo,90,US,1524360360,88,19.71,-155.08,73.4,66.61,14.99
125,Kauswagan,44,PH,1524362584,96,8.19,124.09,82.02,82.02,3.42
126,Kautokeino,92,NO,1524362585,95,69.01,23.04,29.46,29.46,3.98
127,Berlevag,20,NO,1524361833,100,70.86,29.09,16.41,16.41,3.31
128,Naze,36,NG,1524361883,96,5.43,7.07,72.66,72.66,2.98
129,Avarua,12,CK,1524361764,100,-21.21,-159.78,79.23,79.23,5.44
130,Khatanga,68,RU,1524361759,93,71.98,102.47,14.61,14.61,15.05
131,Posse,8,BR,1524362586,66,-14.08,-46.36,73.56,73.56,10.92
132,Havre-Saint-Pierre,20,CA,1524358800,44,50.23,-63.6,37.4,37.4,6.93
133,Gairo,12,TZ,1524362587,94,-6.14,36.87,55.29,55.29,2.3
134,Santa Barbara,1,US,1524360900,49,34.42,-119.7,71.6,68.25,4.7
135,Onega,0,RU,1524362588,85,63.91,38.09,21.81,21.81,9.46
136,Coquimbo,90,CL,1524358800,93,-29.95,-71.34,55.4,55.4,4.54
137,Havelock,1,US,1524362040,71,34.88,-76.9,57.2,54.59,10.02
138,Ilulissat,92,GL,1524358200,85,69.22,-51.1,24.8,24.8,3.36
139,Jerez,0,ES,1524360600,93,36.68,-6.14,60.8,60.03,1.12
140,Tecoanapa,20,MX,1524357960,83,16.99,-99.26,82.4,82.4,5.82
141,Victoria,75,BN,1524360600,83,5.28,115.24,84.2,83.32,2.24
142,Rurrenabaque,36,BO,1524362590,90,-14.44,-67.53,70.77,70.77,2.19
143,Kaitangata,80,NZ,1524361967,72,-46.28,169.85,52.59,52.59,21.65
144,Ometepec,24,MX,1524362590,77,16.69,-98.42,74.64,74.64,2.3
145,Isangel,75,VU,1524358800,74,-19.55,169.27,82.4,82.4,8.05
146,Codrington,92,AU,1524361973,100,-28.95,153.24,63.93,63.93,5.21
147,Voh,68,NC,1524362591,88,-20.95,164.69,81.21,81.21,10.8
148,Juba,12,EE,1524361800,65,57.82,26.93,41.0,41.0,11.41
149,Yar-Sale,68,RU,1524362592,91,66.83,70.83,13.89,13.89,15.05
150,Araguari,8,BR,1524362593,66,-18.65,-48.19,63.21,63.21,5.55
151,Chokurdakh,32,RU,1524361924,100,70.62,147.9,23.25,23.25,4.65
152,Nampula,0,MZ,1524362593,87,-15.12,39.26,66.72,66.72,5.88
153,Santiago,0,CL,1524362400,59,-33.44,-70.65,62.6,62.6,6.93
154,Pevek,8,RU,1524361834,87,69.7,170.27,28.29,28.29,3.31
155,Bojnurd,75,IR,1524358800,81,37.47,57.33,50.0,50.0,11.41
156,Inirida,36,CO,1524362595,96,3.87,-67.92,72.84,72.84,1.97
157,Acapulco,20,MX,1524357960,83,16.86,-99.88,82.4,82.4,5.82
158,Cordoba,68,CO,1524362595,79,5.59,-73.79,55.92,55.92,1.19
159,Senanga,0,ZM,1524362224,67,-16.1,23.3,62.49,62.49,5.44
160,Preobrazheniye,36,RU,1524362596,40,42.9,133.91,54.48,54.48,3.2
161,Kazachinskoye,24,RU,1524362596,77,57.69,93.28,51.33,51.33,8.68
162,Syracuse,20,US,1524362160,51,43.05,-76.15,39.2,37.35,2.75
163,Marawi,76,PH,1524361976,100,8.0,124.29,73.92,73.92,1.07
164,Mislinja,0,SI,1524360600,93,46.44,15.2,53.6,50.45,1.12
165,Geraldton,5,CA,1524358800,29,49.72,-86.95,50.0,50.0,10.29
166,Gbadolite,48,CD,1524362597,86,4.28,21.0,74.01,74.01,1.41
167,Morant Bay,20,JM,1524358800,74,17.88,-76.41,82.4,82.4,12.75
168,Primorsko-Akhtarsk,56,RU,1524362598,85,46.05,38.18,53.31,53.31,20.87
169,Lusambo,56,CD,1524362598,98,-4.97,23.44,72.48,72.48,2.19
170,Tautira,40,PF,1524360600,70,-17.73,-149.15,86.0,86.0,10.29
171,Vila Velha,75,BR,1524358800,88,-3.71,-38.6,80.6,80.6,4.7
172,Harper,1,US,1524359700,56,30.3,-99.24,80.6,76.96,5.99
173,Te Anau,0,NZ,1524362599,78,-45.41,167.72,50.43,50.43,3.42
174,Grand Gaube,75,MU,1524358800,94,-20.01,57.66,77.0,77.0,12.75
175,Diffa,0,NE,1524362600,45,13.32,12.61,69.06,69.06,0.18
176,Okha,0,RU,1524362600,94,53.59,142.95,32.16,32.16,17.63
177,Moerai,44,PF,1524362022,100,-22.43,-151.33,79.23,79.23,14.05
178,Taoudenni,0,ML,1524362601,27,22.68,-3.98,68.61,68.61,5.21
179,Tongliao,8,CN,1524362602,60,43.61,122.27,57.81,57.81,17.74
180,High Level,90,CA,1524358800,93,58.52,-117.13,42.8,42.8,2.24
181,Pisco,0,PE,1524358800,73,-13.71,-76.2,71.6,71.6,6.93
182,Sindor,0,RU,1524362603,69,62.87,51.9,15.06,15.06,7.67
183,Keti Bandar,0,PK,1524362603,95,24.14,67.45,82.2,82.2,12.71
184,Roald,80,NO,1524360000,100,62.58,6.12,41.0,39.96,5.82
185,Clarence Town,75,AU,1524360600,73,-32.59,151.78,71.6,71.6,11.41
186,Shishou,88,CN,1524362604,89,29.72,112.42,76.35,76.35,12.03
187,Hluti,92,SZ,1524362605,99,-27.22,31.62,64.65,64.65,3.09
188,Joetsu,0,JP,1524362605,78,37.15,138.24,60.69,60.69,2.98
189,Kochubey,0,RU,1524362605,100,44.39,46.54,49.35,49.35,12.15
190,Victoria,75,BN,1524360600,83,5.28,115.24,84.2,83.32,2.24
191,Tuatapere,36,NZ,1524361857,100,-46.13,167.69,52.41,52.41,15.5
192,Whitehorse,40,CA,1524358800,38,60.72,-135.06,41.0,41.0,14.99
193,Chuy,0,UY,1524361768,98,-33.69,-53.46,66.72,66.72,8.57
194,Izhma,44,RU,1524362607,77,65.01,53.91,14.52,14.52,2.42
195,Bismarck,1,US,1524361920,57,46.81,-100.78,50.0,50.0,11.41
196,Agadir,0,MA,1524360600,81,30.42,-9.58,53.6,53.6,4.7
197,Shinyanga,76,TZ,1524362608,98,-3.66,33.43,63.39,63.39,7.45
198,Manohar Thana,0,IN,1524362608,19,24.24,76.8,84.36,84.36,5.32
199,Thompson,90,CA,1524358800,37,55.74,-97.86,53.6,53.6,3.36
200,Anloga,20,GH,1524358800,88,5.79,0.9,78.8,78.8,4.7
201,Toamasina,88,MG,1524362609,97,-18.17,49.38,71.49,71.49,2.53
202,Casma,0,PE,1524362610,99,-9.47,-78.3,65.28,65.28,7.45
203,Touros,88,BR,1524361794,95,-5.2,-35.46,78.06,78.06,8.57
204,Coihaique,90,CL,1524358800,87,-45.58,-72.07,44.6,42.57,4.7
205,Lagos,20,NG,1524358800,88,6.46,3.39,80.6,80.6,2.24
206,Bambanglipuro,20,ID,1524362611,93,-7.95,110.28,84.18,84.18,4.09
207,Ushuaia,75,AR,1524358800,86,-54.81,-68.31,39.2,39.2,6.93
208,Bolshaya Glushitsa,92,RU,1524362611,94,50.24,43.59,48.9,48.9,17.4
209,Caravelas,80,BR,1524361903,100,-17.73,-39.27,78.42,78.42,13.27
210,Matane,75,CA,1524358800,47,48.83,-67.52,39.2,38.3,3.36
211,Adrar,0,DZ,1524358800,17,27.87,-0.29,73.4,73.4,11.41
212,Khandyga,0,RU,1524362613,49,62.65,135.58,34.95,34.95,6.78
213,Luderitz,44,NA,1524361933,96,-26.65,15.16,53.94,53.94,9.8
214,Horconcitos,44,PA,1524362613,91,8.47,-81.8,72.66,72.66,1.97
215,Bow Island,20,CA,1524358800,26,49.87,-111.38,55.4,55.4,29.97
216,Awbari,64,LY,1524362315,31,26.59,12.77,69.06,69.06,12.48
217,Turayf,0,SA,1524358800,50,31.68,38.65,57.2,57.2,4.7
218,Puerto Escondido,0,MX,1524362615,100,15.86,-97.07,84.0,84.0,12.26
219,Grand-Santi,88,GF,1524362615,100,4.27,-54.38,71.04,71.04,2.3
220,Tezu,76,IN,1524362227,95,27.93,96.16,62.31,62.31,1.63
221,Saint-Augustin,0,FR,1524360600,72,44.83,-0.61,62.6,60.62,5.82
222,Souillac,0,FR,1524360600,72,45.6,-0.6,60.8,60.8,3.36
223,Ixtapa,75,MX,1524357780,88,20.71,-105.21,77.0,77.0,9.17
224,Freeport,80,BS,1524362616,100,26.54,-78.7,75.0,75.0,16.51
225,Hithadhoo,88,MV,1524361766,100,-0.6,73.08,84.72,84.72,11.03
226,Lososina,80,RU,1524362617,73,49.0,140.31,39.81,39.81,0.85
227,Ekhabi,0,RU,1524362617,94,53.51,142.97,32.16,32.16,17.63
228,Mogadishu,56,SO,1524362321,100,2.04,45.34,80.31,80.31,9.69
229,Las Cruces,90,CL,1524362400,93,-33.5,-71.62,55.4,53.82,5.82
230,Santa Isabel do Rio Negro,48,BR,1524362530,100,-0.41,-65.02,73.47,73.47,2.75
231,Lorengau,36,PG,1524361773,92,-2.02,147.27,86.43,86.43,9.13
232,Mahebourg,75,MU,1524358800,94,-20.41,57.7,77.0,77.0,12.75
233,Torbay,40,CA,1524358800,86,47.66,-52.73,32.0,32.0,23.04
234,Hirara,75,JP,1524358800,88,24.8,125.28,78.8,78.8,11.41
235,Oranjemund,56,ZA,1524361963,100,-28.55,16.43,58.44,58.44,9.46
236,Ponta do Sol,36,BR,1524361914,83,-20.63,-46.0,61.86,61.86,3.42
237,Albany,20,US,1524358440,29,42.65,-73.75,48.2,46.38,12.75
238,Kavaratti,36,IN,1524362584,100,10.57,72.64,86.25,86.25,3.98
239,Nueve de Julio,0,AR,1524362619,71,-31.67,-68.39,67.26,67.26,5.77
240,Tokur,32,RU,1524362620,39,53.13,132.9,35.58,35.58,6.67
241,Castro,92,CL,1524361873,100,-42.48,-73.76,46.56,46.56,7.0
242,Constitucion,75,MX,1524358260,11,23.99,-104.67,80.6,80.6,13.87
243,Dwarka,0,IN,1524358800,43,28.58,77.04,71.6,71.6,5.82
244,Cherskiy,8,RU,1524361869,80,68.75,161.3,35.94,35.94,1.52
245,Kaeo,56,NZ,1524362621,63,-35.1,173.78,67.26,67.26,12.59
246,Bereda,80,ES,1524360600,93,43.27,-7.54,55.4,55.4,6.93
247,Dzhebariki-Khaya,0,RU,1524362621,49,62.22,135.8,34.95,34.95,6.78
248,Katsuura,0,JP,1524358800,49,33.93,134.5,69.8,69.8,3.36
249,Choix,80,MX,1524362622,30,26.71,-108.33,73.92,73.92,1.63
250,New Norfolk,0,AU,1524358800,52,-42.78,147.06,66.2,66.2,8.05
251,Walvis Bay,0,NA,1524358800,93,-22.95,14.51,55.4,55.4,7.23
252,Ust-Ilimsk,36,RU,1524362623,56,57.96,102.73,49.8,49.8,8.34
253,Jalu,0,LY,1524361989,40,29.03,21.55,64.83,64.83,12.03
254,Smithers,40,CA,1524358800,34,54.78,-127.17,48.2,48.2,8.05
255,Lere,0,TD,1524362623,74,9.66,14.23,76.89,76.89,6.78
256,Brenes,0,ES,1524360600,88,37.55,-5.87,62.6,60.39,2.24
257,Miri,8,NG,1524362624,79,10.31,9.75,72.84,72.84,7.78
258,Gat,0,SN,1524361786,83,14.69,-16.54,64.56,64.56,9.8
259,Dum Duma,92,IN,1524362625,100,27.57,95.57,66.72,66.72,2.64
260,Gombong,48,ID,1524362625,80,-7.19,109.31,82.83,82.83,2.53
261,Huarmey,76,PE,1524362074,74,-10.07,-78.15,64.2,64.2,2.75
262,Vrangel,92,RU,1524362626,79,42.73,133.08,45.12,45.12,3.98
263,Broken Hill,0,AU,1524362626,35,-31.97,141.45,82.65,82.65,5.44
264,Clyde River,1,CA,1524358800,73,70.47,-68.59,26.6,26.6,11.41
265,Troy,1,US,1524361980,31,42.73,-73.69,48.2,45.23,9.17
266,Hambantota,8,LK,1524362341,100,6.12,81.12,82.65,82.65,2.98
267,San Jose del Guaviare,68,CO,1524362628,96,2.57,-72.65,70.95,70.95,1.41
268,Lianzhou,80,CN,1524362628,90,24.79,112.38,73.02,73.02,4.21
269,Tura,0,IN,1524362056,94,25.52,90.21,74.28,74.28,3.76
270,Port Macquarie,90,AU,1524358800,60,-31.43,152.91,71.6,71.6,11.41
271,Maun,0,BW,1524358800,52,-19.99,23.42,64.4,64.4,8.05
272,Nador,12,MA,1524360600,93,35.17,-2.93,60.8,59.76,6.93
273,Suicheng,92,CN,1524362631,90,33.9,117.93,73.11,73.11,7.0
274,Port Lincoln,0,AU,1524361849,73,-34.72,135.86,73.47,73.47,7.45
275,Hope,75,CA,1524358800,69,49.38,-121.43,53.6,48.22,10.29
276,Atuona,0,PF,1524361776,100,-9.8,-139.03,80.94,80.94,14.27
277,Anadyr,0,RU,1524358800,53,64.73,177.51,24.8,24.8,2.24
278,Cururupu,36,BR,1524362472,96,-1.82,-44.87,76.71,76.71,3.98
279,Puerto Ayora,0,EC,1524361771,97,-0.74,-90.35,76.53,76.53,8.68
280,Bull Savanna,24,JM,1524362389,90,17.89,-77.59,73.29,73.29,3.98
281,Beloha,0,MG,1524362633,83,-25.17,45.06,61.95,61.95,4.65
282,College,1,US,1524358680,48,64.86,-147.8,42.8,40.37,3.36
283,Charlestown,1,US,1524359700,49,41.38,-71.64,53.6,47.66,3.36
284,Gasa,44,BT,1524362633,81,27.91,89.73,22.08,22.08,0.96
285,Oranjestad,40,AW,1524358800,83,12.52,-70.03,80.6,80.6,16.11
286,Albanel,20,CA,1524358800,44,48.88,-72.44,37.4,37.4,9.17
287,Genhe,0,CN,1524362634,43,50.78,121.52,53.31,53.31,9.46
288,Jodhpur,0,IN,1524362539,23,26.3,73.04,77.97,77.97,7.23
289,Behbahan,75,IR,1524358800,29,30.59,50.24,75.2,70.61,4.7
290,Kinablangan,20,PH,1524362635,100,7.69,126.55,81.39,81.39,6.78
291,Dosso,0,NE,1524362635,67,13.05,3.19,70.86,70.86,1.86
292,Chernaya Kholunitsa,92,RU,1524362362,89,58.85,51.72,29.01,29.01,25.68
293,Guamuchil,76,MX,1524362615,38,25.47,-108.1,78.51,78.51,6.22
294,Santa Cruz de Tenerife,8,ES,1524360600,100,28.47,-16.25,60.8,58.41,23.04
295,Strelka,48,RU,1524362637,87,58.08,93.03,47.01,47.01,8.01
296,Nome,90,US,1524359700,78,30.04,-94.42,71.6,70.21,11.41
297,Aldergrove,75,CA,1524359700,50,49.06,-122.49,53.6,52.86,12.75
298,East London,0,ZA,1524361802,100,-33.02,27.91,71.4,71.4,7.0
299,Atar,80,MR,1524362638,31,20.52,-13.05,64.83,64.83,4.76
300,Las Palmas,20,PE,1524358800,88,-6.53,-76.35,75.2,75.2,3.36
301,Hasaki,0,JP,1524358800,53,35.73,140.83,75.2,74.35,3.36
302,Ostrovnoy,76,RU,1524362216,79,68.05,39.51,10.38,10.38,3.98
303,Rio Grande,36,BR,1524362639,97,-32.03,-52.1,70.59,70.59,12.48
304,Zeya,0,RU,1524362640,32,53.74,127.27,45.3,45.3,3.2
305,Erzin,0,TR,1524360000,50,36.95,36.2,51.8,51.8,10.29
306,Guerrero Negro,64,MX,1524362641,58,27.97,-114.04,66.99,66.99,5.99
307,Khasan,88,RU,1524362641,58,42.43,130.64,48.54,48.54,3.31
308,Hobyo,32,SO,1524362642,93,5.35,48.53,75.72,75.72,3.42
309,Cap Malheureux,75,MU,1524358800,94,-19.98,57.61,77.0,77.0,12.75
310,Amga,20,RU,1524362642,47,60.89,131.98,37.11,37.11,6.78
311,Carnarvon,8,ZA,1524361579,72,-30.97,22.13,39.81,39.81,2.75
312,Boden,76,SE,1524360000,88,65.83,21.69,32.0,32.0,2.24
313,Kulhudhuffushi,0,MV,1524362643,97,6.62,73.07,86.25,86.25,5.99
314,Shakawe,0,BW,1524362644,52,-18.36,21.84,62.22,62.22,5.77
315,Georgetown,75,GY,1524358800,94,6.8,-58.16,75.2,75.2,2.24
316,Jining,92,CN,1524362644,100,35.41,116.58,70.23,70.23,4.99
317,Meadow Lake,92,CA,1524362637,99,54.13,-108.44,43.95,43.95,6.78
318,Kirkland Lake,1,CA,1524358800,38,48.15,-80.03,42.8,42.8,8.05
319,Gondanglegi,24,ID,1524362645,91,-7.75,112.01,82.02,82.02,2.75
320,Tadine,92,NC,1524362646,99,-21.55,167.88,77.61,77.61,16.51
321,Yulara,0,AU,1524358800,16,-25.24,130.99,87.8,87.8,18.34
322,Sanbu,56,CN,1524362646,80,33.46,119.15,78.24,78.24,10.47
323,Cayenne,75,GF,1524358800,100,4.94,-52.33,77.0,77.0,3.36
324,Vostok,0,RU,1524362069,44,46.45,135.83,48.45,48.45,5.66
325,Mabaruma,88,GY,1524362647,91,8.2,-59.78,78.06,78.06,6.22
326,Ostersund,8,SE,1524360000,80,63.18,14.64,35.6,35.6,20.8
327,Bethel,75,US,1524358380,77,60.79,-161.76,44.6,44.6,14.99
328,Hobart,0,AU,1524358800,52,-42.88,147.33,66.2,66.2,8.05
329,Macultepec,5,MX,1524357660,58,18.17,-92.83,84.2,84.2,5.82
330,Los Llanos de Aridane,92,ES,1524360600,63,28.66,-17.92,64.4,64.4,3.36
331,Mehamn,64,NO,1524361843,77,71.03,27.85,20.19,20.19,4.21
332,Garissa,92,KE,1524362068,99,-0.46,39.64,71.58,71.58,4.09
333,Ouro Fino,56,BR,1524362649,88,-22.28,-46.37,60.15,60.15,6.55
334,Vaitape,68,PF,1524362650,100,-16.52,-151.75,81.12,81.12,8.23
335,Longyearbyen,40,NO,1524361800,67,78.22,15.63,23.0,23.0,14.99
336,Lavrentiya,0,RU,1524361863,100,65.58,-170.99,22.8,22.8,25.79
337,San Pedro,8,AR,1524362651,95,-33.68,-59.66,64.38,64.38,6.44
338,Ribeira Grande,88,PT,1524361792,99,38.52,-28.7,63.21,63.21,13.6
339,Honiara,40,SB,1524358800,74,-9.43,159.96,87.8,87.8,9.17
340,Butaritari,0,KI,1524361790,100,3.07,172.79,83.91,83.91,12.82
341,Upernavik,24,GL,1524361776,100,72.79,-56.15,12.99,12.99,3.98
342,Dunedin,0,NZ,1524361945,58,-45.87,170.5,54.84,54.84,15.5
343,Henties Bay,44,NA,1524361809,100,-22.12,14.28,60.42,60.42,4.88
344,Airai,20,TL,1524361763,57,-8.93,125.41,82.83,82.83,3.09
345,Comodoro Rivadavia,0,AR,1524358800,34,-45.87,-67.48,66.2,66.2,20.8
346,Lerwick,44,GB,1524361800,93,60.15,-1.15,44.6,44.6,23.04
347,Araouane,0,ML,1524362654,26,18.9,-3.53,67.44,67.44,2.98
348,Bredasdorp,8,ZA,1524358800,93,-34.53,20.04,53.6,53.6,5.82
349,Kostroma,92,RU,1524362654,92,57.77,40.93,31.53,31.53,26.13
350,Hermanus,12,ZA,1524361819,91,-34.42,19.24,42.69,42.69,2.75
351,Iquitos,20,PE,1524358800,88,-3.75,-73.25,77.0,77.0,2.24
352,Duldurga,12,RU,1524362655,49,50.67,113.59,54.12,54.12,5.32
353,Fort Walton Beach,90,US,1524360960,83,30.41,-86.62,69.8,69.8,5.77
354,Shaoyang,92,CN,1524362656,100,27.23,111.45,69.42,69.42,3.2
355,Ilhabela,0,BR,1524362657,100,-23.78,-45.36,74.46,74.46,14.94
356,Barcelos,0,PT,1524360600,93,41.53,-8.62,60.8,60.13,1.97
357,Lagoa,75,PT,1524360600,93,37.14,-8.45,60.8,60.8,4.7
358,Bowling Green,1,US,1524362100,33,36.99,-86.44,62.6,60.33,6.33
359,Mangrol,0,IN,1524362494,20,25.33,76.51,82.92,82.92,9.91
360,Kargopol,0,RU,1524362658,74,61.51,38.95,22.44,22.44,15.28
361,Tuktoyaktuk,5,CA,1524358800,77,69.44,-133.03,-2.21,-3.28,4.7
362,Azangaro,40,PE,1524358800,68,-14.91,-70.2,44.6,44.6,3.36
363,Chicama,75,PE,1524358800,88,-7.84,-79.15,68.0,68.0,9.17
364,Vaini,0,IN,1524361778,64,15.34,74.49,80.31,80.31,3.65
365,Dikson,76,RU,1524361848,100,73.51,80.55,12.72,12.72,18.07
366,Itaituba,8,BR,1524362660,95,-4.26,-55.99,74.91,74.91,1.97
367,Buala,92,SB,1524361983,99,-8.15,159.59,80.58,80.58,7.56
368,Sestri Levante,0,IT,1524360000,51,44.27,9.41,62.6,62.6,3.36
369,Jamestown,0,AU,1524361648,22,-33.21,138.6,84.99,84.99,9.01
370,Noumea,20,NC,1524360600,62,-22.28,166.46,86.0,86.0,11.41
371,Kokopo,20,PG,1524362661,98,-4.34,152.27,83.64,83.64,8.01
372,Alofi,68,NU,1524362096,100,-19.06,-169.92,81.84,81.84,9.8
373,Paraiso,75,MX,1524358260,11,24.01,-104.61,80.6,80.6,13.87
374,Ramenskoye,75,RU,1524360600,71,55.57,38.23,39.2,38.57,24.61
375,Coracora,80,PE,1524362662,92,-15.02,-73.78,41.52,41.52,2.75
376,Lubango,0,AO,1524362663,73,-14.92,13.49,58.89,58.89,2.64
377,Kempten,0,CH,1524361800,87,47.33,8.82,55.4,51.31,3.36
378,Beruwala,24,LK,1524362664,96,6.48,79.98,85.35,85.35,1.97
379,Ukiah,1,US,1524358560,68,39.15,-123.21,78.8,78.8,5.82
380,Port Moresby,40,PG,1524358800,66,-9.47,147.16,89.6,89.6,4.7
381,Itarema,44,BR,1524362419,94,-2.92,-39.92,76.35,76.35,5.77
382,Huizhou,92,CN,1524362665,93,23.11,114.41,76.08,76.08,3.87
383,Awjilah,0,LY,1524362666,43,29.14,21.3,63.21,63.21,11.81
384,Chipinge,0,ZW,1524362666,92,-20.19,32.62,60.06,60.06,2.64
385,Sikeston,1,US,1524361980,29,36.88,-89.59,68.0,65.61,8.05
386,Skjervoy,80,NO,1524362667,100,70.03,20.97,35.67,35.67,3.53
387,Road Town,1,VG,1524358380,78,18.42,-64.62,78.8,78.8,10.29
388,Aykhal,88,RU,1524362588,90,65.95,111.51,35.76,35.76,12.26
389,Poronaysk,56,RU,1524362668,80,49.22,143.1,37.38,37.38,9.46
390,Qaanaaq,80,GL,1524361833,89,77.48,-69.36,12.54,12.54,5.44
391,Lasa,20,CY,1524360600,62,34.92,32.53,60.8,58.82,2.24
392,Landerneau,0,FR,1524360600,76,48.45,-4.26,55.4,52.84,10.29
393,Belyy Yar,0,RU,1524358800,64,53.6,91.39,37.4,37.4,4.47
394,Saint-Joseph,0,FR,1524360600,71,43.56,6.97,66.2,57.69,4.7
395,Mount Gambier,0,AU,1524361984,70,-37.83,140.78,68.88,68.88,3.31
396,Zhigansk,76,RU,1524361943,78,66.77,123.37,31.89,31.89,10.13
397,Socorro,20,PH,1524362670,97,13.06,121.41,80.58,80.58,3.65
398,Omsukchan,76,RU,1524362671,86,62.53,155.8,28.83,28.83,5.21
399,Hornepayne,0,CA,1524362671,65,49.22,-84.78,33.06,33.06,4.21
400,Sitka,88,US,1524361930,96,37.17,-99.65,47.91,47.91,6.78
401,Amazar,8,RU,1524362671,31,53.86,120.88,50.79,50.79,3.31
402,Saint-Pierre,0,FR,1524360600,77,48.95,4.24,59.0,58.01,1.12
403,Marsa Matruh,20,EG,1524358800,63,31.35,27.25,64.4,64.4,11.41
404,Kurilsk,24,RU,1524362673,95,45.23,147.88,33.15,33.15,14.5
405,Fowa,48,NG,1524362673,84,8.92,6.4,77.34,77.34,4.43
406,Baherden,64,TM,1524362337,77,38.44,57.43,57.63,57.63,4.76
407,Taitung,75,TW,1524360600,69,22.76,121.15,82.4,82.4,2.24
408,Gornyak,12,KZ,1524362674,68,51.0,81.46,54.39,54.39,14.05
409,Khani,75,GE,1524360600,100,41.96,42.96,46.4,46.4,3.36
410,Halifax,75,CA,1524358800,64,44.65,-63.58,39.2,39.2,4.7
411,Roebourne,8,AU,1524362676,26,-20.77,117.15,94.71,94.71,5.77
412,Arrifes,75,PT,1524360600,82,37.77,-25.7,62.6,62.6,9.17
413,Sibolga,80,ID,1524362676,93,1.74,98.78,76.26,76.26,1.19
414,Port Elizabeth,1,US,1524358560,61,39.31,-74.98,55.4,51.57,3.36
415,Severo-Kurilsk,12,RU,1524361938,97,50.68,156.12,31.98,31.98,21.77
416,Kiruna,68,SE,1524360000,100,67.86,20.23,30.2,30.2,2.24
417,Maniitsoq,0,GL,1524362677,63,65.42,-52.9,21.0,21.0,6.89
418,Acari,0,BR,1524362677,88,-6.44,-36.64,70.77,70.77,7.67
419,Provideniya,0,RU,1524361759,100,64.42,-173.23,23.16,23.16,22.88
420,San Juan,20,PH,1524358800,55,14.6,121.03,89.6,89.6,6.93
421,Natchitoches,75,US,1524360900,88,31.76,-93.09,71.6,68.76,5.82
422,Komsomolskiy,56,RU,1524361936,89,67.55,63.78,7.68,7.68,4.76
423,Lang Suan,0,TH,1524358800,83,9.95,99.07,80.6,80.6,3.76
424,Omboue,0,GA,1524362679,100,-1.57,9.26,82.74,82.74,7.23
425,Poya,64,NC,1524362680,96,-21.35,165.16,78.42,78.42,15.05
426,Saint-Georges,12,CA,1524362680,63,46.12,-70.67,30.63,30.63,4.76
427,Severo-Yeniseyskiy,88,RU,1524362681,97,60.37,93.04,43.59,43.59,10.36
428,Kavieng,32,PG,1524362293,100,-2.57,150.8,82.74,82.74,5.44
429,San Diego,75,US,1524358560,68,32.72,-117.16,75.2,67.17,9.17
430,Kaniama,8,CD,1524362682,93,-7.57,24.18,63.57,63.57,1.97
431,Beringovskiy,0,RU,1524361842,100,63.05,179.32,25.68,25.68,18.3
432,Kaduqli,0,SD,1524362682,75,11.01,29.72,71.49,71.49,4.43
433,Tigil,0,RU,1524362683,94,57.8,158.67,36.66,36.66,6.44
434,Ushtobe,0,KZ,1524362683,29,45.25,77.98,63.66,63.66,4.65
435,Dorchester,8,GB,1524358200,82,50.71,-2.44,59.0,59.0,10.29
436,Bambous Virieux,75,MU,1524358800,94,-20.34,57.76,77.0,77.0,12.75
437,Valls,0,ES,1524360600,93,41.28,1.25,59.0,56.66,3.36
438,Lakatoro,80,VU,1524362685,83,-16.11,167.42,82.38,82.38,5.99
439,Port-Gentil,8,GA,1524361591,98,-0.72,8.78,80.94,80.94,6.11
440,Verkh-Usugli,0,RU,1524362685,36,52.7,115.17,56.37,56.37,4.09
441,Tasiilaq,68,GL,1524361805,100,65.61,-37.64,25.86,25.86,4.21
442,Rikitea,92,PF,1524361765,100,-23.12,-134.97,78.96,78.96,8.46
443,Sibay,44,RU,1524362686,82,52.72,58.67,27.75,27.75,4.43
444,Tilichiki,88,RU,1524362687,89,60.47,166.1,30.72,30.72,10.25
445,Chilliwack,75,CA,1524358800,50,49.17,-121.95,53.6,53.6,12.75
446,Orchard Homes,1,US,1524361980,30,46.86,-114.05,53.6,53.6,12.75
447,Pratapgarh,0,IN,1524362688,45,25.92,82.0,86.16,86.16,4.43
448,Egvekinot,0,RU,1524362689,81,66.32,-179.17,24.42,24.42,3.31
449,Hastings,0,NZ,1524362689,88,-39.64,176.84,60.06,60.06,15.05
450,Gambela,8,ET,1524362690,83,8.25,34.59,60.51,60.51,2.86
451,Cherdyn,68,RU,1524362690,69,60.4,56.48,21.18,21.18,7.34
452,Ancud,92,CL,1524361950,98,-41.87,-73.83,49.53,49.53,9.57
453,San Jose de Rio Tinto,75,HN,1524358800,74,14.93,-85.7,78.8,78.8,3.36
454,Xichang,0,CN,1524362691,37,27.88,102.25,70.68,70.68,1.97
455,Goderich,0,CA,1524362043,65,43.74,-81.71,29.37,29.37,3.42
456,Campina Verde,0,BR,1524362691,65,-19.54,-49.49,63.93,63.93,6.44
457,Iskateley,36,RU,1524362692,78,67.68,53.15,4.62,4.62,3.98
458,Vila Franca do Campo,75,PT,1524360600,82,37.72,-25.43,62.6,62.6,9.17
459,Namibe,0,AO,1524362356,100,-15.19,12.15,77.97,77.97,4.09
460,Bangassou,32,CF,1524362692,100,4.74,22.82,71.94,71.94,2.3
461,Zemio,88,CF,1524362693,93,5.02,25.13,70.41,70.41,5.77
462,Bulgan,20,MN,1524362693,78,48.81,103.53,46.92,46.92,2.42
463,Flinders,24,AU,1524358800,53,-34.58,150.85,71.6,71.6,5.82
464,Port-Cartier,75,CA,1524358800,32,50.03,-66.88,37.4,37.4,4.7
465,Boyuibe,0,BO,1524362695,78,-20.43,-63.28,72.21,72.21,10.58
466,Kodinsk,76,RU,1524362199,61,58.6,99.18,49.44,49.44,9.13
467,Cidreira,12,BR,1524361879,91,-30.17,-50.22,70.59,70.59,6.44
468,Tiksi,0,RU,1524361775,85,71.64,128.87,26.94,26.94,6.55
469,Aripuana,12,BR,1524362696,96,-9.17,-60.63,75.63,75.63,1.97
470,Gwadar,0,PK,1524362696,100,25.12,62.33,72.84,72.84,4.21
471,Bela,0,PK,1524362696,15,26.23,66.31,70.05,70.05,3.53
472,Nuristan,0,UZ,1524358800,27,38.49,65.64,62.6,62.6,9.17
473,Dezhou,92,CN,1524362697,100,37.45,116.31,53.22,53.22,20.54
474,San Patricio,0,PY,1524361798,85,-26.98,-56.83,73.2,73.2,2.19
475,La Ronge,90,CA,1524358800,61,55.1,-105.3,46.4,46.4,5.82
476,Vardo,1,US,1524359700,32,39.62,-77.74,55.4,49.73,3.36
477,Punta Arenas,0,CL,1524358800,100,-53.16,-70.91,39.2,39.2,23.04
478,Nepomuceno,80,BR,1524362699,92,-21.23,-45.23,63.21,63.21,11.25
479,Talin,32,AM,1524360600,86,40.38,43.87,42.8,32.85,4.21
480,Boshan,92,CN,1524362700,100,36.48,117.83,57.09,57.09,12.26
481,Labuhan,36,ID,1524362306,76,-2.54,115.51,85.44,85.44,2.64
482,Yerbogachen,68,RU,1524362493,66,61.28,108.01,45.21,45.21,10.47
483,Saldanha,92,PT,1524361942,98,41.42,-6.55,53.22,53.22,2.42
484,Sioux Lookout,20,CA,1524358800,42,50.1,-91.92,55.4,51.76,2.24
485,Pacific Grove,1,US,1524360900,36,36.62,-121.92,77.0,69.75,12.75
486,Penzance,32,GB,1524358200,100,50.12,-5.53,44.6,44.6,2.24
487,Edd,8,ER,1524362701,61,13.93,41.69,72.48,72.48,2.75
488,Pulawy,0,PL,1524362702,69,51.42,21.97,42.87,42.87,3.2
489,Ambon,0,FR,1524360600,100,47.55,-2.56,53.6,53.6,4.76
490,Port Said,0,EG,1524362702,30,25.34,30.55,76.98,76.98,13.82
491,Mayahi,0,NE,1524362703,46,13.95,7.67,72.66,72.66,6.44
492,Birjand,0,IR,1524358800,16,32.86,59.22,59.0,59.0,18.34
493,Ahipara,56,NZ,1524361767,81,-35.17,173.16,66.0,66.0,13.15
494,Sorland,88,NO,1524362463,98,67.67,12.69,41.79,41.79,5.88
495,Sao Miguel do Araguaia,12,BR,1524362613,79,-13.28,-50.16,74.37,74.37,3.53
496,Arlit,0,NE,1524361966,20,18.74,7.39,65.64,65.64,3.76
497,Fairbanks,1,US,1524358680,48,64.84,-147.72,42.8,40.39,3.36
498,Zhaotong,64,CN,1524362705,75,27.34,103.71,64.65,64.65,3.2
499,Nanzhou,75,TW,1524360600,58,22.49,120.51,86.0,84.13,5.82
500,Ketchikan,75,US,1524358560,75,55.34,-131.65,46.4,46.4,14.99
501,Husainabad,0,IN,1524362706,25,24.53,84.02,87.06,87.06,3.65
502,Angoche,0,MZ,1524362706,100,-16.23,39.91,80.4,80.4,14.27
503,Kununurra,0,AU,1524360600,41,-15.77,128.74,93.2,93.2,5.82
504,Sharjah,0,AE,1524358800,44,25.36,55.39,78.8,70.75,5.82
505,Lebu,44,ET,1524361762,90,8.96,38.73,46.29,46.29,3.53
506,Aiquile,24,BO,1524362708,93,-18.2,-65.18,46.02,46.02,4.21
507,Salalah,0,OM,1524358200,44,17.01,54.1,77.0,77.0,4.7
508,Cervo,56,BR,1524362709,88,-22.19,-46.24,60.15,60.15,6.55
509,Cabo San Lucas,75,MX,1524358020,47,22.89,-109.91,77.0,76.05,6.93
510,Illela,20,NG,1524362709,64,12.39,4.75,79.14,79.14,10.25
511,Yellowknife,75,CA,1524358800,54,62.45,-114.38,30.2,30.2,11.41
512,Turukhansk,64,RU,1524362710,100,65.8,87.96,11.28,11.28,8.01
513,Aranos,0,NA,1524362710,37,-24.14,19.11,50.16,50.16,2.75
514,Mbuyapey,0,PY,1524362710,79,-26.22,-56.76,74.19,74.19,3.2
515,Ust-Nera,68,RU,1524362284,81,64.57,143.24,26.04,26.04,2.64
516,Pop,0,UZ,1524358800,62,40.87,71.1,51.8,51.8,2.24
517,Wagga Wagga,0,AU,1524358800,46,-35.12,147.37,73.4,73.4,10.29
518,Mwinilunga,0,ZM,1524362326,77,-11.73,24.43,56.82,56.82,2.98
519,Tanout,20,NE,1524362712,32,14.97,8.88,72.57,72.57,4.43
520,Half Moon Bay,1,US,1524361200,82,37.46,-122.43,82.4,71.42,11.41
521,Parkes,12,AU,1524362713,58,-33.14,148.18,73.83,73.83,3.98
522,Byron Bay,90,AU,1524359460,88,-28.65,153.62,68.0,68.0,5.82
523,Valparaiso,90,US,1524361500,45,41.47,-87.06,51.8,47.73,4.7
524,Brokopondo,20,SR,1524362400,94,5.06,-54.98,77.0,77.0,4.09
525,Jati,0,PK,1524362714,39,24.35,68.27,78.78,78.78,3.65
526,Buin,0,CL,1524362400,59,-33.73,-70.74,62.6,62.6,6.93
527,Norman Wells,75,CA,1524358800,38,65.28,-126.83,23.0,23.0,6.93
528,Calbuco,90,CL,1524358800,93,-41.77,-73.13,53.6,53.6,5.82
529,Saskylakh,80,RU,1524361865,91,71.97,114.09,22.98,22.98,21.43
530,Yuzhnyy,36,RU,1524362716,85,53.54,39.45,41.43,41.43,20.76
531,Ulaanbaatar,75,MN,1524362400,33,47.92,106.92,42.8,42.8,4.47
532,Hamilton,40,BM,1524358500,67,32.3,-64.78,62.6,62.6,8.05
533,Kelso,1,US,1524361980,41,46.14,-122.91,60.8,57.54,12.75
534,Jinchang,88,CN,1524362717,66,38.52,102.19,51.51,51.51,7.45
535,Beitbridge,0,ZA,1524362717,95,-22.21,29.99,62.22,62.22,2.98
536,Taltal,12,CL,1524362322,98,-25.41,-70.49,56.64,56.64,0.29
537,Itacoatiara,44,BR,1524362565,96,-3.14,-58.44,76.26,76.26,4.76
538,Kapaa,20,US,1524358560,78,22.08,-159.32,78.8,78.8,13.87
539,Bumba,56,CD,1524362718,92,2.18,22.47,74.19,74.19,3.76
540,Alice,75,US,1524360480,94,27.75,-98.07,80.6,76.14,6.93
541,Kalmunai,8,LK,1524362719,74,7.42,81.82,84.81,84.81,4.21
542,Manaus,75,BR,1524362400,78,-3.13,-59.98,80.6,78.37,6.93
543,Pangnirtung,32,CA,1524361829,84,66.15,-65.72,10.92,10.92,1.63
544,Vanimo,12,PG,1524362720,100,-2.67,141.3,83.46,83.46,10.47
545,Tommot,24,RU,1524362721,52,58.97,126.27,37.83,37.83,5.99
546,Santo Amaro da Imperatriz,0,BR,1524358800,88,-27.69,-48.78,73.4,73.4,8.05
547,Cedar City,1,US,1524358380,18,37.68,-113.06,64.4,64.4,8.05
548,Port Blair,0,IN,1524362417,100,11.67,92.75,85.17,85.17,4.99
549,Muli,0,IN,1524362722,53,22.62,71.45,80.22,80.22,8.34
550,Esmeraldas,0,BR,1524358800,77,-19.76,-44.31,64.4,64.4,10.29
551,Natal,20,BR,1524362400,83,-5.81,-35.21,78.8,78.8,3.36
552,Kodiak,90,US,1524358380,33,39.95,-94.76,59.0,59.0,12.75
553,Digha,24,IN,1524362724,83,21.62,87.51,87.78,87.78,21.09
554,Ondjiva,0,AO,1524362230,62,-17.07,15.73,58.53,58.53,3.65
555,Leningradskiy,64,RU,1524361894,100,69.38,178.42,24.33,24.33,11.03
556,Manokwari,56,ID,1524362724,100,-0.87,134.08,81.3,81.3,5.77
557,Conselheiro Lafaiete,92,BR,1524362725,99,-20.66,-43.79,61.86,61.86,3.53
558,Jiangyou,44,CN,1524362725,63,31.78,104.73,74.64,74.64,2.75
559,Biasca,0,CH,1524360000,82,46.36,8.97,55.4,55.4,1.12
